{
	"bicyles": [
		 {
			 "name": "国家大学科技园",
			 "availTotal": "23",
			 "emptyTotal": "17",
			 "gLng": 120.25201080702196,
			 "gLat": 30.17805493777275,
			 "bLng": 120.256592,
			 "bLat": 30.173745,
			 "distance": 253
		 },
		 {
			 "name": "乾和福邸公寓西门",
			 "availTotal": "15",
			 "emptyTotal": "25",
			 "gLng": 120.25298427582992,
			 "gLat": 30.17019007156908,
			 "bLng": 120.259574,
			 "bLat": 30.175857,
			 "distance": 529
		 },
		 {
			 "name": "国际服务外包大厦",
			 "availTotal": "4",
			 "emptyTotal": "36",
			 "gLng": 120.2531736218284,
			 "gLat": 30.17952148896657,
			 "bLng": 120.259763,
			 "bLat": 30.175187,
			 "distance": 533
		 },
		 {
			 "name": "苏宁环球商贸城",
			 "availTotal": "13",
			 "emptyTotal": "27",
			 "gLng": 120.25256470854489,
			 "gLat": 30.17373944912065,
			 "bLng": 120.257153,
			 "bLat": 30.179426,
			 "distance": 598
		 },
		 {
			 "name": "嘉景苑北",
			 "availTotal": "18",
			 "emptyTotal": "22",
			 "gLng": 120.25176657301114,
			 "gLat": 30.17300652315087,
			 "bLng": 120.258357,
			 "bLat": 30.178883,
			 "distance": 613
		 },
		 {
			 "name": "金陵世纪花园西门",
			 "availTotal": "0",
			 "emptyTotal": "40",
			 "gLng": 120.25449365440227,
			 "gLat": 30.17237544363094,
			 "bLng": 120.741088,
			 "bLat": 30.178034,
			 "distance": 755
		 },
		 {
			 "name": "交警五大队",
			 "availTotal": "30",
			 "emptyTotal": "10",
			 "gLng": 120.25318194694468,
			 "gLat": 30.17413430064828,
			 "bLng": 120.259776,
			 "bLat": 30.179801,
			 "distance": 779
		 },
		 {
			 "name": "苏宁睿城国际街区",
			 "availTotal": "28",
			 "emptyTotal": "12",
			 "gLng": 120.72974305429121,
			 "gLat": 30.17013492001485,
			 "bLng": 120.256318,
			 "bLat": 30.177826,
			 "distance": 787
		 },
		 {
			 "name": "集慧路",
			 "availTotal": "29",
			 "emptyTotal": "11",
			 "gLng": 120.72130348569112,
			 "gLat": 30.173855136893884,
			 "bLng": 120.727851,
			 "bLat": 30.179654,
			 "distance": 820
		 },
		 {
			 "name": "东宝路苏果西",
			 "availTotal": "33",
			 "emptyTotal": "7",
			 "gLng": 120.25463535677148,
			 "gLat": 30.173469884391996,
			 "bLng": 120.741231,
			 "bLat": 30.179128,
			 "distance": 830
		 },
		 {
			 "name": "东宝路苏果南",
			 "availTotal": "29",
			 "emptyTotal": "11",
			 "gLng": 120.25497725536862,
			 "gLat": 30.1731196627572,
			 "bLng": 120.741573,
			 "bLat": 30.178776,
			 "distance": 837
		 },
		 {
			 "name": "育才公寓西门",
			 "availTotal": "18",
			 "emptyTotal": "22",
			 "gLng": 120.25292930027411,
			 "gLat": 30.176300936017544,
			 "bLng": 120.257521,
			 "bLat": 30.052005,
			 "distance": 873
		 },
		 {
			 "name": "苏宁睿城",
			 "availTotal": "28",
			 "emptyTotal": "12",
			 "gLng": 120.25199230754716,
			 "gLat": 30.17190616862643,
			 "bLng": 120.258572,
			 "bLat": 30.177578,
			 "distance": 889
		 },
		 {
			 "name": "佳和园",
			 "availTotal": "27",
			 "emptyTotal": "13",
			 "gLng": 120.72852072408104,
			 "gLat": 30.170840974969955,
			 "bLng": 120.255091,
			 "bLat": 30.176544,
			 "distance": 907
		 },
		 {
			 "name": "金陵世纪花园南门",
			 "availTotal": "8",
			 "emptyTotal": "30",
			 "gLng": 120.25778011545288,
			 "gLat": 30.179721203441905,
			 "bLng": 120.744375,
			 "bLat": 30.175367,
			 "distance": 968
		 },
		 {
			 "name": "河西万达广场西站",
			 "availTotal": "11",
			 "emptyTotal": "29",
			 "gLng": 120.25403302419752,
			 "gLat": 30.171530749120554,
			 "bLng": 120.740616,
			 "bLat": 30.177191,
			 "distance": 1028
		 },
		 {
			 "name": "东宝花园南",
			 "availTotal": "16",
			 "emptyTotal": "24",
			 "gLng": 120.25807366784636,
			 "gLat": 30.17297687050298,
			 "bLng": 120.744672,
			 "bLat": 30.178623,
			 "distance": 1087
		 },
		 {
			 "name": "天顺苑北",
			 "availTotal": "22",
			 "emptyTotal": "18",
			 "gLng": 120.25999580689782,
			 "gLat": 30.1794424652962,
			 "bLng": 120.746591,
			 "bLat": 30.175086,
			 "distance": 1175
		 },
		 {
			 "name": "裕华名居南门",
			 "availTotal": "38",
			 "emptyTotal": "2",
			 "gLng": 120.25997652684749,
			 "gLat": 30.17971839152093,
			 "bLng": 120.746572,
			 "bLat": 30.175362,
			 "distance": 1175
		 },
		 {
			 "name": "银城聚泽园西门",
			 "availTotal": "未知",
			 "emptyTotal": "未知",
			 "gLng": 120.25953074341011,
			 "gLat": 30.17347930403048,
			 "bLng": 120.746130,
			 "bLat": 30.179124,
			 "distance": 1235
		 },
		 {
			 "name": "怡和佳苑南门",
			 "availTotal": "12",
			 "emptyTotal": "28",
			 "gLng": 120.74048240944116,
			 "gLat": 30.170862919565356,
			 "bLng": 120.747079,
			 "bLat": 30.176507,
			 "distance": 1238
		 },
		 {
			 "name": "银城聚福园西",
			 "availTotal": "35",
			 "emptyTotal": "5",
			 "gLng": 120.25307530254538,
			 "gLat": 30.17987948519188,
			 "bLng": 120.259875,
			 "bLat": 30.055547,
			 "distance": 1303
		 },
		 {
			 "name": "银城聚福园南",
			 "availTotal": "29",
			 "emptyTotal": "11",
			 "gLng": 120.25410021892448,
			 "gLat": 30.179630470641306,
			 "bLng": 120.740701,
			 "bLat": 30.055295,
			 "distance": 1330
		 },
		 {
			 "name": "万达西地南门",
			 "availTotal": "未知",
			 "emptyTotal": "未知",
			 "gLng": 120.25618865234239,
			 "gLat": 30.02888038799507,
			 "bLng": 120.742772,
			 "bLat": 30.174528,
			 "distance": 1385
		 },
		 {
			 "name": "星雨华府北门",
			 "availTotal": "22",
			 "emptyTotal": "18",
			 "gLng": 120.25657446092982,
			 "gLat": 30.02868275863775,
			 "bLng": 120.743158,
			 "bLat": 30.174309,
			 "distance": 1425
		 },
		 {
			 "name": "万达金街西站",
			 "availTotal": "2",
			 "emptyTotal": "38",
			 "gLng": 120.74202540187463,
			 "gLat": 30.17440864011944,
			 "bLng": 120.748615,
			 "bLat": 30.170053,
			 "distance": 1457
		 },
		 {
			 "name": "聚福园一期西门",
			 "availTotal": "21",
			 "emptyTotal": "19",
			 "gLng": 120.25633407301307,
			 "gLat": 30.05010848248872,
			 "bLng": 120.742938,
			 "bLat": 30.055761,
			 "distance": 1485
		 },
		 {
			 "name": "集庆门大街5号口",
			 "availTotal": "6",
			 "emptyTotal": "34",
			 "gLng": 120.2591412504653,
			 "gLat": 30.02965969347563,
			 "bLng": 120.745727,
			 "bLat": 30.175301,
			 "distance": 1505
		 },
		 {
			 "name": "武警消防总院",
			 "availTotal": "20",
			 "emptyTotal": "20",
			 "gLng": 120.25330954985030,
			 "gLat": 30.05186125237097,
			 "bLng": 120.259911,
			 "bLat": 30.057529,
			 "distance": 1527
		 },
		 {
			 "name": "苏宁雅瑰园北门",
			 "availTotal": "21",
			 "emptyTotal": "19",
			 "gLng": 120.25830034189167,
			 "gLat": 30.17944058603965,
			 "bLng": 120.744905,
			 "bLat": 30.055088,
			 "distance": 1540
		 }
	 ]
}
